{
"driveData":[
{"time": "10147","gpsData":"$GPRMC,055416.200,A,3725.5638,N,12210.3557,W,0.08,216.96,140413,,,A*73","accelData":"0.11","speedData":"0"},
{"time": "10547","gpsData":"$GPRMC,055416.600,A,3725.5638,N,12210.3556,W,0.06,216.96,140413,,,A*78","accelData":"0.12","speedData":"0"},
{"time": "10947","gpsData":"$GPRMC,055417.000,A,3725.5637,N,12210.3556,W,0.11,216.96,140413,,,A*76","accelData":"0.12","speedData":"0"},
{"time": "11346","gpsData":"$GPRMC,055417.400,A,3725.5637,N,12210.3556,W,0.14,216.96,140413,,,A*77","accelData":"0.12","speedData":"0"},
{"time": "11747","gpsData":"$GPRMC,055417.800,A,3725.5637,N,12210.3555,W,0.14,216.96,140413,,,A*78","accelData":"0.12","speedData":"269"},
{"time": "12146","gpsData":"$GPRMC,055418.200,A,3725.5636,N,12210.3554,W,0.14,216.96,140413,,,A*7D","accelData":"0.13","speedData":"0"},
{"time": "12547","gpsData":"$GPRMC,055418.600,A,3725.5636,N,12210.3553,W,0.17,216.96,140413,,,A*7D","accelData":"0.13","speedData":"0"},
{"time": "12946","gpsData":"$GPRMC,055419.000,A,3725.5636,N,12210.3552,W,0.18,216.96,140413,,,A*74","accelData":"0.12","speedData":"0"},
{"time": "13346","gpsData":"$GPRMC,055419.400,A,3725.5636,N,12210.3552,W,0.20,216.96,140413,,,A*7B","accelData":"0.10","speedData":"0"},
{"time": "13746","gpsData":"$GPRMC,055419.800,A,3725.5636,N,12210.3551,W,0.18,216.96,140413,,,A*7F","accelData":"0.08","speedData":"0"},
{"time": "14148","gpsData":"$GPRMC,055420.200,A,3725.5636,N,12210.3551,W,0.17,216.96,140413,,,A*70","accelData":"0.08","speedData":"0"},
{"time": "14545","gpsData":"$GPRMC,055420.600,A,3725.5635,N,12210.3551,W,0.19,216.96,140413,,,A*79","accelData":"0.08","speedData":"0"},
{"time": "14946","gpsData":"$GPRMC,055421.000,A,3725.5636,N,12210.3552,W,0.17,216.96,140413,,,A*70","accelData":"0.08","speedData":"0"},
{"time": "15345","gpsData":"$GPRMC,055421.400,A,3725.5636,N,12210.3552,W,0.13,216.96,140413,,,A*70","accelData":"0.08","speedData":"0"},
{"time": "15746","gpsData":"$GPRMC,055421.800,A,3725.5637,N,12210.3552,W,0.10,216.96,140413,,,A*7E","accelData":"0.08","speedData":"0"},
{"time": "16145","gpsData":"$GPRMC,055422.200,A,3725.5638,N,12210.3551,W,0.11,216.96,140413,,,A*7A","accelData":"0.09","speedData":"0"},
{"time": "16545","gpsData":"$GPRMC,055422.600,A,3725.5638,N,12210.3550,W,0.10,216.96,140413,,,A*7E","accelData":"0.09","speedData":"0"},
{"time": "16945","gpsData":"$GPRMC,055423.000,A,3725.5638,N,12210.3548,W,0.12,216.96,140413,,,A*72","accelData":"0.08","speedData":"0"},
{"time": "17345","gpsData":"$GPRMC,055423.400,A,3725.5638,N,12210.3545,W,0.13,216.96,140413,,,A*7A","accelData":"0.08","speedData":"0"},
{"time": "17744","gpsData":"$GPRMC,055423.800,A,3725.5640,N,12210.3545,W,0.07,216.96,140413,,,A*7C","accelData":"0.08","speedData":"0"},
{"time": "18144","gpsData":"$GPRMC,055424.200,A,3725.5641,N,12210.3544,W,0.04,216.96,140413,,,A*72","accelData":"0.09","speedData":"0"},
{"time": "18544","gpsData":"$GPRMC,055424.600,A,3725.5641,N,12210.3544,W,0.07,216.96,140413,,,A*75","accelData":"0.08","speedData":"0"},
{"time": "18945","gpsData":"$GPRMC,055425.000,A,3725.5642,N,12210.3543,W,0.03,216.96,140413,,,A*72","accelData":"0.09","speedData":"0"},
{"time": "19344","gpsData":"$GPRMC,055425.400,A,3725.5643,N,12210.3542,W,0.02,216.96,140413,,,A*77","accelData":"0.08","speedData":"0"},
{"time": "19743","gpsData":"$GPRMC,055425.800,A,3725.5643,N,12210.3541,W,0.07,216.96,140413,,,A*7D","accelData":"0.08","speedData":"0"},
{"time": "20146","gpsData":"$GPRMC,055426.200,A,3725.5643,N,12210.3540,W,0.09,216.96,140413,,,A*7B","accelData":"0.08","speedData":"0"},
{"time": "20543","gpsData":"$GPRMC,055426.600,A,3725.5644,N,12210.3540,W,0.13,216.96,140413,,,A*73","accelData":"0.07","speedData":"0"},
{"time": "20946","gpsData":"$GPRMC,055427.000,A,3725.5644,N,12210.3540,W,0.13,216.96,140413,,,A*74","accelData":"0.07","speedData":"0"},
{"time": "21343","gpsData":"$GPRMC,055427.400,A,3725.5644,N,12210.3539,W,0.14,216.96,140413,,,A*79","accelData":"0.07","speedData":"0"},
{"time": "21743","gpsData":"$GPRMC,055427.800,A,3725.5645,N,12210.3538,W,0.14,216.96,140413,,,A*75","accelData":"0.08","speedData":"0"},
{"time": "22140","gpsData":"$GPRMC,055428.200,A,3725.5646,N,12210.3539,W,0.12,216.96,140413,,,A*74","accelData":"0.07","speedData":"0"},
{"time": "22544","gpsData":"$GPRMC,055428.600,A,3725.5647,N,12210.3538,W,0.13,216.96,140413,,,A*71","accelData":"0.07","speedData":"0"},
{"time": "22945","gpsData":"$GPRMC,055429.000,A,3725.5648,N,12210.3538,W,0.13,216.96,140413,,,A*79","accelData":"0.04","speedData":"0"},
{"time": "23344","gpsData":"$GPRMC,055429.400,A,3725.5648,N,12210.3538,W,0.14,216.96,140413,,,A*7A","accelData":"0.03","speedData":"0"},
{"time": "23743","gpsData":"$GPRMC,055429.800,A,3725.5648,N,12210.3538,W,0.12,216.96,140413,,,A*70","accelData":"0.04","speedData":"0"},
{"time": "24144","gpsData":"$GPRMC,055430.200,A,3725.5648,N,12210.3539,W,0.13,216.96,140413,,,A*72","accelData":"0.04","speedData":"0"},
{"time": "24544","gpsData":"$GPRMC,055430.600,A,3725.5648,N,12210.3541,W,0.18,260.31,140413,,,A*7E","accelData":"0.04","speedData":"3"},
{"time": "24946","gpsData":"$GPRMC,055431.000,A,3725.5648,N,12210.3542,W,0.39,258.76,140413,,,A*71","accelData":"0.04","speedData":"5"},
{"time": "25344","gpsData":"$GPRMC,055431.400,A,3725.5648,N,12210.3544,W,0.45,259.26,140413,,,A*7C","accelData":"0.03","speedData":"5"},
{"time": "25743","gpsData":"$GPRMC,055431.800,A,3725.5648,N,12210.3545,W,0.57,259.70,140413,,,A*71","accelData":"0.04","speedData":"5"},
{"time": "26143","gpsData":"$GPRMC,055432.200,A,3725.5648,N,12210.3546,W,0.64,259.72,140413,,,A*79","accelData":"0.03","speedData":"5"},
{"time": "26543","gpsData":"$GPRMC,055432.600,A,3725.5648,N,12210.3549,W,0.74,259.92,140413,,,A*7D","accelData":"0.03","speedData":"5"},
{"time": "26941","gpsData":"$GPRMC,055433.000,A,3725.5648,N,12210.3552,W,0.96,260.49,140413,,,A*70","accelData":"0.04","speedData":"7"},
{"time": "27341","gpsData":"$GPRMC,055433.400,A,3725.5649,N,12210.3556,W,1.18,261.30,140413,,,A*79","accelData":"0.05","speedData":"9"},
{"time": "27742","gpsData":"$GPRMC,055433.800,A,3725.5650,N,12210.3560,W,1.27,262.46,140413,,,A*76","accelData":"0.08","speedData":"11"},
{"time": "28144","gpsData":"$GPRMC,055434.200,A,3725.5653,N,12210.3566,W,1.64,264.53,140413,,,A*7B","accelData":"0.09","speedData":"11"},
{"time": "28541","gpsData":"$GPRMC,055434.600,A,3725.5655,N,12210.3573,W,1.99,276.82,140413,,,A*70","accelData":"0.10","speedData":"10"},
{"time": "28945","gpsData":"$GPRMC,055435.000,A,3725.5659,N,12210.3580,W,3.06,283.01,140413,,,A*72","accelData":"0.12","speedData":"10"},
{"time": "29341","gpsData":"$GPRMC,055435.400,A,3725.5662,N,12210.3586,W,4.03,287.27,140413,,,A*7A","accelData":"0.13","speedData":"10"},
{"time": "29741","gpsData":"$GPRMC,055435.800,A,3725.5665,N,12210.3591,W,4.35,287.79,140413,,,A*79","accelData":"0.15","speedData":"9"},
{"time": "30140","gpsData":"$GPRMC,055436.200,A,3725.5668,N,12210.3597,W,4.40,290.87,140413,,,A*7E","accelData":"0.15","speedData":"9"},
{"time": "30540","gpsData":"$GPRMC,055436.600,A,3725.5671,N,12210.3601,W,4.36,291.40,140413,,,A*75","accelData":"0.13","speedData":"9"},
{"time": "30940","gpsData":"$GPRMC,055437.000,A,3725.5673,N,12210.3605,W,4.11,291.12,140413,,,A*76","accelData":"0.13","speedData":"8"},
{"time": "31340","gpsData":"$GPRMC,055437.400,A,3725.5675,N,12210.3609,W,3.88,290.46,140413,,,A*7F","accelData":"0.11","speedData":"8"},
{"time": "31740","gpsData":"$GPRMC,055437.800,A,3725.5677,N,12210.3612,W,3.77,289.05,140413,,,A*74","accelData":"0.09","speedData":"7"},
{"time": "32142","gpsData":"$GPRMC,055438.200,A,3725.5677,N,12210.3616,W,3.75,286.24,140413,,,A*7B","accelData":"0.09","speedData":"6"},
{"time": "32541","gpsData":"$GPRMC,055438.600,A,3725.5677,N,12210.3620,W,3.65,282.57,140413,,,A*7B","accelData":"0.08","speedData":"8"},
{"time": "32940","gpsData":"$GPRMC,055439.000,A,3725.5677,N,12210.3625,W,3.33,274.01,140413,,,A*70","accelData":"0.08","speedData":"7"},
{"time": "33340","gpsData":"$GPRMC,055439.400,A,3725.5676,N,12210.3630,W,3.39,259.41,140413,,,A*70","accelData":"0.08","speedData":"6"},
{"time": "33739","gpsData":"$GPRMC,055439.800,A,3725.5675,N,12210.3636,W,3.86,252.03,140413,,,A*70","accelData":"0.09","speedData":"8"},
{"time": "34140","gpsData":"$GPRMC,055440.200,A,3725.5673,N,12210.3641,W,4.01,241.65,140413,,,A*78","accelData":"0.11","speedData":"8"},
{"time": "34539","gpsData":"$GPRMC,055440.600,A,3725.5671,N,12210.3644,W,4.07,233.41,140413,,,A*7E","accelData":"0.12","speedData":"8"},
{"time": "34939","gpsData":"$GPRMC,055441.000,A,3725.5668,N,12210.3649,W,4.14,229.34,140413,,,A*77","accelData":"0.10","speedData":"8"},
{"time": "35340","gpsData":"$GPRMC,055441.400,A,3725.5670,N,12210.3656,W,4.18,225.82,140413,,,A*79","accelData":"0.11","speedData":"8"},
{"time": "35739","gpsData":"$GPRMC,055441.800,A,3725.5664,N,12210.3660,W,4.17,224.09,140413,,,A*78","accelData":"0.12","speedData":"8"},
{"time": "36139","gpsData":"$GPRMC,055442.200,A,3725.5662,N,12210.3660,W,3.72,221.08,140413,,,A*77","accelData":"0.08","speedData":"7"},
{"time": "36538","gpsData":"$GPRMC,055442.600,A,3725.5656,N,12210.3663,W,3.63,220.14,140413,,,A*7B","accelData":"0.02","speedData":"7"},
{"time": "36939","gpsData":"$GPRMC,055443.000,A,3725.5652,N,12210.3670,W,3.65,213.09,140413,,,A*70","accelData":"0.01","speedData":"7"},
{"time": "37337","gpsData":"$GPRMC,055443.400,A,3725.5647,N,12210.3674,W,3.89,204.20,140413,,,A*7B","accelData":"0.02","speedData":"7"},
{"time": "37737","gpsData":"$GPRMC,055443.800,A,3725.5642,N,12210.3677,W,3.97,202.33,140413,,,A*7A","accelData":"0.02","speedData":"7"},
{"time": "38137","gpsData":"$GPRMC,055444.200,A,3725.5636,N,12210.3681,W,4.44,203.03,140413,,,A*76","accelData":"0.02","speedData":"9"},
{"time": "38537","gpsData":"$GPRMC,055444.600,A,3725.5631,N,12210.3684,W,4.47,203.40,140413,,,A*74","accelData":"0.02","speedData":"9"},
{"time": "38939","gpsData":"$GPRMC,055445.000,A,3725.5624,N,12210.3688,W,4.88,202.85,140413,,,A*70","accelData":"0.02","speedData":"11"},
{"time": "39337","gpsData":"$GPRMC,055445.400,A,3725.5616,N,12210.3692,W,5.31,203.65,140413,,,A*72","accelData":"0.03","speedData":"11"},
{"time": "39737","gpsData":"$GPRMC,055445.800,A,3725.5608,N,12210.3696,W,5.69,203.58,140413,,,A*76","accelData":"0.03","speedData":"11"},
{"time": "40137","gpsData":"$GPRMC,055446.200,A,3725.5600,N,12210.3699,W,6.10,202.61,140413,,,A*7E","accelData":"0.04","speedData":"11"},
{"time": "40537","gpsData":"$GPRMC,055446.600,A,3725.5590,N,12210.3703,W,6.35,200.55,140413,,,A*70","accelData":"0.05","speedData":"11"},
{"time": "40938","gpsData":"$GPRMC,055447.000,A,3725.5579,N,12210.3704,W,6.47,197.98,140413,,,A*7E","accelData":"0.05","speedData":"13"},
{"time": "41336","gpsData":"$GPRMC,055447.400,A,3725.5562,N,12210.3708,W,6.81,198.74,140413,,,A*7B","accelData":"0.05","speedData":"13"},
{"time": "41737","gpsData":"$GPRMC,055447.800,A,3725.5542,N,12210.3714,W,7.14,198.52,140413,,,A*71","accelData":"0.05","speedData":"13"},
{"time": "42136","gpsData":"$GPRMC,055448.200,A,3725.5530,N,12210.3712,W,7.44,198.26,140413,,,A*71","accelData":"0.04","speedData":"13"},
{"time": "42536","gpsData":"$GPRMC,055448.600,A,3725.5518,N,12210.3711,W,7.72,197.10,140413,,,A*73","accelData":"0.04","speedData":"16"},
{"time": "42936","gpsData":"$GPRMC,055449.000,A,3725.5509,N,12210.3710,W,8.26,195.55,140413,,,A*78","accelData":"0.02","speedData":"16"},
{"time": "43335","gpsData":"$GPRMC,055449.400,A,3725.5501,N,12210.3713,W,8.82,194.55,140413,,,A*78","accelData":"0.02","speedData":"16"},
{"time": "43736","gpsData":"$GPRMC,055449.800,A,3725.5486,N,12210.3714,W,9.26,193.79,140413,,,A*7B","accelData":"0.02","speedData":"16"},
{"time": "44137","gpsData":"$GPRMC,055450.200,A,3725.5475,N,12210.3716,W,9.69,192.89,140413,,,A*72","accelData":"0.02","speedData":"18"},
{"time": "44535","gpsData":"$GPRMC,055450.600,A,3725.5464,N,12210.3719,W,9.97,192.27,140413,,,A*7C","accelData":"0.01","speedData":"18"},
{"time": "44937","gpsData":"$GPRMC,055451.000,A,3725.5452,N,12210.3721,W,10.36,191.52,140413,,,A*47","accelData":"0.02","speedData":"18"},
{"time": "45336","gpsData":"$GPRMC,055451.400,A,3725.5441,N,12210.3723,W,10.67,191.37,140413,,,A*44","accelData":"0.05","speedData":"20"},
{"time": "45734","gpsData":"$GPRMC,055451.800,A,3725.5429,N,12210.3726,W,10.73,192.14,140413,,,A*44","accelData":"0.06","speedData":"20"},
{"time": "46138","gpsData":"$GPRMC,055452.200,A,3725.5417,N,12210.3729,W,11.13,193.17,140413,,,A*4A","accelData":"0.07","speedData":"20"},
{"time": "46536","gpsData":"$GPRMC,055452.600,A,3725.5405,N,12210.3732,W,11.21,194.11,140413,,,A*47","accelData":"0.07","speedData":"22"},
{"time": "46938","gpsData":"$GPRMC,055453.000,A,3725.5394,N,12210.3736,W,11.23,195.12,140413,,,A*4B","accelData":"0.06","speedData":"22"},
{"time": "47337","gpsData":"$GPRMC,055453.400,A,3725.5382,N,12210.3741,W,11.27,195.41,140413,,,A*4A","accelData":"0.05","speedData":"21"},
{"time": "47735","gpsData":"$GPRMC,055453.800,A,3725.5368,N,12210.3751,W,11.32,194.89,140413,,,A*42","accelData":"0.05","speedData":"21"},
{"time": "48135","gpsData":"$GPRMC,055454.200,A,3725.5355,N,12210.3758,W,11.54,194.89,140413,,,A*48","accelData":"0.06","speedData":"22"},
{"time": "48536","gpsData":"$GPRMC,055454.600,A,3725.5344,N,12210.3760,W,11.58,195.18,140413,,,A*42","accelData":"0.07","speedData":"21"},
{"time": "48934","gpsData":"$GPRMC,055455.000,A,3725.5331,N,12210.3764,W,11.57,195.13,140413,,,A*47","accelData":"0.07","speedData":"21"},
{"time": "49335","gpsData":"$GPRMC,055455.400,A,3725.5317,N,12210.3768,W,11.55,194.61,140413,,,A*4D","accelData":"0.07","speedData":"23"},
{"time": "49734","gpsData":"$GPRMC,055455.800,A,3725.5305,N,12210.3772,W,11.51,194.16,140413,,,A*4D","accelData":"0.07","speedData":"22"},
{"time": "50135","gpsData":"$GPRMC,055456.200,A,3725.5291,N,12210.3777,W,11.47,194.43,140413,,,A*4A","accelData":"0.08","speedData":"22"},
{"time": "50534","gpsData":"$GPRMC,055456.600,A,3725.5277,N,12210.3781,W,11.42,194.92,140413,,,A*46","accelData":"0.09","speedData":"21"},
{"time": "50937","gpsData":"$GPRMC,055457.000,A,3725.5264,N,12210.3786,W,11.35,195.08,140413,,,A*46","accelData":"0.09","speedData":"21"},
{"time": "51334","gpsData":"$GPRMC,055457.400,A,3725.5251,N,12210.3790,W,11.03,194.95,140413,,,A*43","accelData":"0.10","speedData":"21"},
{"time": "51734","gpsData":"$GPRMC,055457.800,A,3725.5238,N,12210.3795,W,10.78,195.00,140413,,,A*45","accelData":"0.10","speedData":"20"},
{"time": "52133","gpsData":"$GPRMC,055458.200,A,3725.5227,N,12210.3799,W,10.49,195.25,140413,,,A*47","accelData":"0.12","speedData":"20"},
{"time": "52532","gpsData":"$GPRMC,055458.600,A,3725.5216,N,12210.3803,W,10.19,195.00,140413,,,A*4F","accelData":"0.16","speedData":"19"},
{"time": "52931","gpsData":"$GPRMC,055459.000,A,3725.5205,N,12210.3805,W,9.53,193.51,140413,,,A*78","accelData":"0.18","speedData":"19"},
{"time": "53331","gpsData":"$GPRMC,055459.400,A,3725.5195,N,12210.3809,W,8.97,193.71,140413,,,A*71","accelData":"0.19","speedData":"18"},
{"time": "53732","gpsData":"$GPRMC,055459.800,A,3725.5185,N,12210.3815,W,8.41,193.72,140413,,,A*79","accelData":"0.19","speedData":"18"},
{"time": "54131","gpsData":"$GPRMC,055500.200,A,3725.5176,N,12210.3823,W,7.71,194.02,140413,,,A*7B","accelData":"0.20","speedData":"16"},
{"time": "54532","gpsData":"$GPRMC,055500.600,A,3725.5168,N,12210.3830,W,7.09,193.75,140413,,,A*7A","accelData":"0.20","speedData":"14"},
{"time": "54931","gpsData":"$GPRMC,055501.000,A,3725.5162,N,12210.3834,W,6.14,193.07,140413,,,A*7B","accelData":"0.19","speedData":"12"},
{"time": "55332","gpsData":"$GPRMC,055501.400,A,3725.5156,N,12210.3838,W,5.35,192.76,140413,,,A*73","accelData":"0.17","speedData":"12"},
{"time": "55731","gpsData":"$GPRMC,055501.800,A,3725.5151,N,12210.3842,W,4.88,192.04,140413,,,A*77","accelData":"0.16","speedData":"10"},
{"time": "56134","gpsData":"$GPRMC,055502.200,A,3725.5147,N,12210.3844,W,4.02,190.12,140413,,,A*78","accelData":"0.11","speedData":"7"},
{"time": "56530","gpsData":"$GPRMC,055502.600,A,3725.5143,N,12210.3845,W,3.57,187.38,140413,,,A*70","accelData":"0.08","speedData":"6"},
{"time": "56931","gpsData":"$GPRMC,055503.000,A,3725.5140,N,12210.3845,W,3.10,185.50,140413,,,A*7B","accelData":"0.06","speedData":"4"},
{"time": "57331","gpsData":"$GPRMC,055503.400,A,3725.5138,N,12210.3845,W,2.70,185.50,140413,,,A*77","accelData":"0.02","speedData":"3"},
{"time": "57731","gpsData":"$GPRMC,055503.800,A,3725.5135,N,12210.3844,W,2.48,185.50,140413,,,A*7C","accelData":"-0.04","speedData":"3"},
{"time": "58130","gpsData":"$GPRMC,055504.200,A,3725.5133,N,12210.3843,W,2.52,185.50,140413,,,A*7B","accelData":"-0.07","speedData":"3"},
{"time": "58530","gpsData":"$GPRMC,055504.600,A,3725.5129,N,12210.3844,W,2.78,185.50,140413,,,A*7B","accelData":"-0.07","speedData":"3"},
{"time": "58930","gpsData":"$GPRMC,055505.000,A,3725.5125,N,12210.3847,W,3.37,200.85,140413,,,A*7F","accelData":"-0.05","speedData":"5"},
{"time": "59329","gpsData":"$GPRMC,055505.400,A,3725.5121,N,12210.3850,W,3.73,208.26,140413,,,A*78","accelData":"-0.01","speedData":"7"},
{"time": "59729","gpsData":"$GPRMC,055505.800,A,3725.5118,N,12210.3856,W,4.52,220.69,140413,,,A*7D","accelData":"0.00","speedData":"10"},
{"time": "60129","gpsData":"$GPRMC,055506.200,A,3725.5114,N,12210.3865,W,5.65,228.73,140413,,,A*7E","accelData":"0.00","speedData":"13"},
{"time": "60529","gpsData":"$GPRMC,055506.600,A,3725.5107,N,12210.3877,W,6.22,232.05,140413,,,A*71","accelData":"0.00","speedData":"13"},
{"time": "60929","gpsData":"$GPRMC,055507.000,A,3725.5106,N,12210.3885,W,6.33,235.51,140413,,,A*7C","accelData":"-0.04","speedData":"15"},
{"time": "61330","gpsData":"$GPRMC,055507.400,A,3725.5106,N,12210.3894,W,7.02,241.20,140413,,,A*7E","accelData":"-0.11","speedData":"15"},
{"time": "61728","gpsData":"$GPRMC,055507.800,A,3725.5106,N,12210.3904,W,7.66,247.85,140413,,,A*71","accelData":"-0.14","speedData":"17"},
{"time": "62130","gpsData":"$GPRMC,055508.200,A,3725.5109,N,12210.3917,W,8.43,257.22,140413,,,A*7D","accelData":"-0.14","speedData":"17"},
{"time": "62531","gpsData":"$GPRMC,055508.600,A,3725.5111,N,12210.3931,W,9.15,262.27,140413,,,A*75","accelData":"-0.07","speedData":"20"},
{"time": "62931","gpsData":"$GPRMC,055509.000,A,3725.5115,N,12210.3949,W,9.98,268.55,140413,,,A*73","accelData":"0.01","speedData":"24"},
{"time": "63329","gpsData":"$GPRMC,055509.400,A,3725.5121,N,12210.3969,W,10.93,273.28,140413,,,A*41","accelData":"0.06","speedData":"24"},
{"time": "63729","gpsData":"$GPRMC,055509.800,A,3725.5124,N,12210.3990,W,12.00,277.07,140413,,,A*4F","accelData":"0.08","speedData":"26"},
{"time": "64129","gpsData":"$GPRMC,055510.200,A,3725.5125,N,12210.4014,W,13.06,279.23,140413,,,A*41","accelData":"0.09","speedData":"28"},
{"time": "64530","gpsData":"$GPRMC,055510.600,A,3725.5129,N,12210.4036,W,13.67,280.60,140413,,,A*4F","accelData":"0.10","speedData":"28"},
{"time": "64932","gpsData":"$GPRMC,055511.000,A,3725.5133,N,12210.4058,W,14.48,282.40,140413,,,A*41","accelData":"0.10","speedData":"28"},
{"time": "65328","gpsData":"$GPRMC,055511.400,A,3725.5140,N,12210.4081,W,14.99,284.44,140413,,,A*4B","accelData":"0.10","speedData":"29"},
{"time": "65728","gpsData":"$GPRMC,055511.800,A,3725.5146,N,12210.4103,W,14.99,285.47,140413,,,A*48","accelData":"0.10","speedData":"27"},
{"time": "66127","gpsData":"$GPRMC,055512.200,A,3725.5152,N,12210.4127,W,14.77,286.31,140413,,,A*40","accelData":"0.08","speedData":"27"},
{"time": "66527","gpsData":"$GPRMC,055512.600,A,3725.5158,N,12210.4151,W,14.54,286.68,140413,,,A*42","accelData":"0.08","speedData":"26"},
{"time": "66931","gpsData":"$GPRMC,055513.000,A,3725.5166,N,12210.4172,W,14.45,287.26,140413,,,A*42","accelData":"0.07","speedData":"26"},
{"time": "67329","gpsData":"$GPRMC,055513.400,A,3725.5172,N,12210.4192,W,14.36,288.17,140413,,,A*44","accelData":"0.07","speedData":"26"},
{"time": "67726","gpsData":"$GPRMC,055513.800,A,3725.5177,N,12210.4211,W,14.11,289.00,140413,,,A*47","accelData":"0.07","speedData":"26"},
{"time": "68128","gpsData":"$GPRMC,055514.200,A,3725.5181,N,12210.4230,W,14.11,290.06,140413,,,A*4E","accelData":"0.08","speedData":"26"},
{"time": "68526","gpsData":"$GPRMC,055514.600,A,3725.5186,N,12210.4248,W,14.19,290.50,140413,,,A*49","accelData":"0.08","speedData":"26"},
{"time": "68926","gpsData":"$GPRMC,055515.000,A,3725.5190,N,12210.4267,W,14.25,290.16,140413,,,A*49","accelData":"0.09","speedData":"26"},
{"time": "69326","gpsData":"$GPRMC,055515.400,A,3725.5196,N,12210.4287,W,14.31,289.31,140413,,,A*4D","accelData":"0.09","speedData":"26"},
{"time": "69727","gpsData":"$GPRMC,055515.800,A,3725.5202,N,12210.4306,W,14.32,288.47,140413,,,A*44","accelData":"0.10","speedData":"26"},
{"time": "70126","gpsData":"$GPRMC,055516.200,A,3725.5208,N,12210.4324,W,14.12,288.11,140413,,,A*46","accelData":"0.10","speedData":"26"},
{"time": "70526","gpsData":"$GPRMC,055516.600,A,3725.5214,N,12210.4343,W,14.01,287.77,140413,,,A*43","accelData":"0.10","speedData":"25"},
{"time": "70928","gpsData":"$GPRMC,055517.000,A,3725.5219,N,12210.4361,W,13.77,287.00,140413,,,A*4F","accelData":"0.10","speedData":"25"},
{"time": "71326","gpsData":"$GPRMC,055517.400,A,3725.5224,N,12210.4380,W,13.68,286.68,140413,,,A*4B","accelData":"0.12","speedData":"25"},
{"time": "71725","gpsData":"$GPRMC,055517.800,A,3725.5229,N,12210.4398,W,13.59,286.56,140413,,,A*4C","accelData":"0.12","speedData":"25"},
{"time": "72125","gpsData":"$GPRMC,055518.200,A,3725.5234,N,12210.4414,W,13.22,287.37,140413,,,A*4C","accelData":"0.13","speedData":"24"},
{"time": "72526","gpsData":"$GPRMC,055518.600,A,3725.5240,N,12210.4429,W,12.85,287.97,140413,,,A*43","accelData":"0.15","speedData":"24"},
{"time": "72928","gpsData":"$GPRMC,055519.000,A,3725.5245,N,12210.4444,W,12.43,287.79,140413,,,A*40","accelData":"0.15","speedData":"24"},
{"time": "73326","gpsData":"$GPRMC,055519.400,A,3725.5249,N,12210.4459,W,12.10,287.83,140413,,,A*47","accelData":"0.16","speedData":"23"},
{"time": "73724","gpsData":"$GPRMC,055519.800,A,3725.5252,N,12210.4474,W,11.72,288.30,140413,,,A*4E","accelData":"0.18","speedData":"22"},
{"time": "74127","gpsData":"$GPRMC,055520.200,A,3725.5256,N,12210.4488,W,11.24,289.34,140413,,,A*4F","accelData":"0.20","speedData":"22"},
{"time": "74524","gpsData":"$GPRMC,055520.600,A,3725.5259,N,12210.4500,W,10.40,290.35,140413,,,A*4F","accelData":"0.21","speedData":"20"},
{"time": "74924","gpsData":"$GPRMC,055521.000,A,3725.5262,N,12210.4511,W,9.65,290.18,140413,,,A*70","accelData":"0.21","speedData":"19"},
{"time": "75324","gpsData":"$GPRMC,055521.400,A,3725.5263,N,12210.4522,W,8.79,288.44,140413,,,A*79","accelData":"0.21","speedData":"17"},
{"time": "75723","gpsData":"$GPRMC,055521.800,A,3725.5265,N,12210.4531,W,7.85,287.44,140413,,,A*72","accelData":"0.21","speedData":"15"},
{"time": "76123","gpsData":"$GPRMC,055522.200,A,3725.5265,N,12210.4538,W,6.87,285.53,140413,,,A*75","accelData":"0.21","speedData":"12"},
{"time": "76523","gpsData":"$GPRMC,055522.600,A,3725.5266,N,12210.4545,W,5.83,284.27,140413,,,A*7D","accelData":"0.19","speedData":"12"},
{"time": "76922","gpsData":"$GPRMC,055523.000,A,3725.5265,N,12210.4550,W,4.69,283.93,140413,,,A*70","accelData":"0.18","speedData":"10"},
{"time": "77324","gpsData":"$GPRMC,055523.400,A,3725.5264,N,12210.4554,W,3.61,285.57,140413,,,A*70","accelData":"0.12","speedData":"8"},
{"time": "77722","gpsData":"$GPRMC,055523.800,A,3725.5264,N,12210.4558,W,3.12,284.93,140413,,,A*7D","accelData":"0.10","speedData":"7"},
{"time": "78123","gpsData":"$GPRMC,055524.200,A,3725.5264,N,12210.4562,W,2.74,285.47,140413,,,A*70","accelData":"0.07","speedData":"5"},
{"time": "78522","gpsData":"$GPRMC,055524.600,A,3725.5264,N,12210.4567,W,2.65,285.47,140413,,,A*71","accelData":"0.01","speedData":"5"},
{"time": "78921","gpsData":"$GPRMC,055525.000,A,3725.5261,N,12210.4572,W,2.59,285.47,140413,,,A*78","accelData":"-0.04","speedData":"4"},
{"time": "79322","gpsData":"$GPRMC,055525.400,A,3725.5265,N,12210.4578,W,2.90,285.47,140413,,,A*77","accelData":"-0.06","speedData":"4"},
{"time": "79721","gpsData":"$GPRMC,055525.800,A,3725.5267,N,12210.4581,W,3.43,285.61,140413,,,A*74","accelData":"-0.08","speedData":"6"},
{"time": "80123","gpsData":"$GPRMC,055526.200,A,3725.5270,N,12210.4587,W,4.22,287.51,140413,,,A*7C","accelData":"-0.14","speedData":"8"},
{"time": "80521","gpsData":"$GPRMC,055526.600,A,3725.5272,N,12210.4596,W,5.17,285.89,140413,,,A*7A","accelData":"-0.11","speedData":"8"},
{"time": "80925","gpsData":"$GPRMC,055527.000,A,3725.5274,N,12210.4605,W,6.20,288.04,140413,,,A*7D","accelData":"-0.01","speedData":"11"},
{"time": "81320","gpsData":"$GPRMC,055527.400,A,3725.5277,N,12210.4617,W,7.40,289.60,140413,,,A*7D","accelData":"0.04","speedData":"15"},
{"time": "81721","gpsData":"$GPRMC,055527.800,A,3725.5280,N,12210.4628,W,8.00,288.83,140413,,,A*72","accelData":"0.07","speedData":"17"},
{"time": "82120","gpsData":"$GPRMC,055528.200,A,3725.5282,N,12210.4640,W,8.76,287.83,140413,,,A*75","accelData":"0.07","speedData":"17"},
{"time": "82521","gpsData":"$GPRMC,055528.600,A,3725.5284,N,12210.4653,W,9.31,287.59,140413,,,A*70","accelData":"0.04","speedData":"17"},
{"time": "82924","gpsData":"$GPRMC,055529.000,A,3725.5287,N,12210.4665,W,9.60,286.42,140413,,,A*7E","accelData":"0.01","speedData":"19"},
{"time": "83322","gpsData":"$GPRMC,055529.400,A,3725.5290,N,12210.4679,W,10.12,285.36,140413,,,A*4C","accelData":"-0.01","speedData":"19"},
{"time": "83721","gpsData":"$GPRMC,055529.800,A,3725.5293,N,12210.4693,W,10.36,284.67,140413,,,A*44","accelData":"-0.01","speedData":"19"},
{"time": "84121","gpsData":"$GPRMC,055530.200,A,3725.5296,N,12210.4710,W,10.95,283.61,140413,,,A*41","accelData":"-0.01","speedData":"20"},
{"time": "84521","gpsData":"$GPRMC,055530.600,A,3725.5300,N,12210.4726,W,11.37,283.87,140413,,,A*4F","accelData":"0.01","speedData":"19"},
{"time": "84921","gpsData":"$GPRMC,055531.000,A,3725.5306,N,12210.4742,W,11.91,285.02,140413,,,A*4B","accelData":"0.02","speedData":"22"},
{"time": "85320","gpsData":"$GPRMC,055531.400,A,3725.5309,N,12210.4759,W,12.55,285.49,140413,,,A*4E","accelData":"0.04","speedData":"24"},
{"time": "85721","gpsData":"$GPRMC,055531.800,A,3725.5309,N,12210.4782,W,12.90,285.06,140413,,,A*46","accelData":"0.05","speedData":"24"},
{"time": "86127","gpsData":"$GPRMC,055532.200,A,3725.5313,N,12210.4801,W,13.21,284.38,140413,,,A*47","accelData":"0.07","speedData":"24"},
{"time": "86519","gpsData":"$GPRMC,055532.600,A,3725.5321,N,12210.4822,W,13.33,284.56,140413,,,A*48","accelData":"0.07","speedData":"26"},
{"time": "86920","gpsData":"$GPRMC,055533.000,A,3725.5328,N,12210.4841,W,13.47,286.37,140413,,,A*45","accelData":"0.07","speedData":"25"},
{"time": "87320","gpsData":"$GPRMC,055533.400,A,3725.5333,N,12210.4860,W,13.58,286.86,140413,,,A*4C","accelData":"0.06","speedData":"25"},
{"time": "87719","gpsData":"$GPRMC,055533.800,A,3725.5337,N,12210.4879,W,13.65,287.04,140413,,,A*49","accelData":"0.06","speedData":"24"},
{"time": "88123","gpsData":"$GPRMC,055534.200,A,3725.5341,N,12210.4897,W,13.74,287.29,140413,,,A*4A","accelData":"0.06","speedData":"26"},
{"time": "88520","gpsData":"$GPRMC,055534.600,A,3725.5344,N,12210.4916,W,13.83,286.49,140413,,,A*4C","accelData":"0.05","speedData":"25"},
{"time": "88923","gpsData":"$GPRMC,055535.000,A,3725.5347,N,12210.4935,W,13.85,285.95,140413,,,A*4D","accelData":"0.05","speedData":"24"},
{"time": "89320","gpsData":"$GPRMC,055535.400,A,3725.5351,N,12210.4953,W,13.80,285.59,140413,,,A*4B","accelData":"0.05","speedData":"26"},
{"time": "89718","gpsData":"$GPRMC,055535.800,A,3725.5355,N,12210.4972,W,13.74,285.34,140413,,,A*40","accelData":"0.05","speedData":"26"},
{"time": "90119","gpsData":"$GPRMC,055536.200,A,3725.5359,N,12210.4991,W,13.67,285.36,140413,,,A*48","accelData":"0.06","speedData":"26"},
{"time": "90519","gpsData":"$GPRMC,055536.600,A,3725.5362,N,12210.5009,W,13.69,284.97,140413,,,A*49","accelData":"0.05","speedData":"26"},
{"time": "90921","gpsData":"$GPRMC,055537.000,A,3725.5365,N,12210.5031,W,13.95,285.47,140413,,,A*4D","accelData":"0.05","speedData":"26"},
{"time": "91322","gpsData":"$GPRMC,055537.400,A,3725.5368,N,12210.5052,W,14.17,285.50,140413,,,D*4F","accelData":"0.05","speedData":"26"},
{"time": "91719","gpsData":"$GPRMC,055537.800,A,3725.5372,N,12210.5072,W,14.30,285.34,140413,,,D*4D","accelData":"0.05","speedData":"26"},
{"time": "92125","gpsData":"$GPRMC,055538.200,A,3725.5378,N,12210.5091,W,14.35,286.00,140413,,,D*4E","accelData":"0.05","speedData":"26"},
{"time": "92521","gpsData":"$GPRMC,055538.600,A,3725.5387,N,12210.5111,W,14.44,286.38,140413,,,D*4E","accelData":"0.07","speedData":"26"},
{"time": "92923","gpsData":"$GPRMC,055539.000,A,3725.5396,N,12210.5132,W,14.54,286.55,140413,,,D*42","accelData":"0.08","speedData":"26"},
{"time": "93321","gpsData":"$GPRMC,055539.400,A,3725.5405,N,12210.5151,W,14.57,287.17,140413,,,D*4A","accelData":"0.09","speedData":"26"},
{"time": "93719","gpsData":"$GPRMC,055539.800,A,3725.5412,N,12210.5173,W,14.56,287.62,140413,,,D*43","accelData":"0.10","speedData":"28"},
{"time": "94118","gpsData":"$GPRMC,055540.200,A,3725.5419,N,12210.5192,W,14.51,288.58,140413,,,D*42","accelData":"0.10","speedData":"28"},
{"time": "94519","gpsData":"$GPRMC,055540.600,A,3725.5426,N,12210.5212,W,14.43,289.11,140413,,,D*4E","accelData":"0.10","speedData":"27"},
{"time": "94922","gpsData":"$GPRMC,055541.000,A,3725.5432,N,12210.5230,W,14.33,289.76,140413,,,D*4A","accelData":"0.08","speedData":"27"},
{"time": "95321","gpsData":"$GPRMC,055541.400,A,3725.5438,N,12210.5248,W,14.27,291.04,140413,,,D*42","accelData":"0.08","speedData":"27"},
{"time": "95720","gpsData":"$GPRMC,055541.800,A,3725.5444,N,12210.5265,W,14.25,291.44,140413,,,D*4C","accelData":"0.07","speedData":"27"},
{"time": "96120","gpsData":"$GPRMC,055542.200,A,3725.5450,N,12210.5283,W,14.00,291.27,140413,,,D*4A","accelData":"0.07","speedData":"26"},
{"time": "96518","gpsData":"$GPRMC,055542.600,A,3725.5455,N,12210.5302,W,13.95,290.62,140413,,,D*48","accelData":"0.07","speedData":"26"},
{"time": "96920","gpsData":"$GPRMC,055543.000,A,3725.5461,N,12210.5319,W,13.97,291.19,140413,,,D*4D","accelData":"0.07","speedData":"26"},
{"time": "97317","gpsData":"$GPRMC,055543.400,A,3725.5468,N,12210.5334,W,13.92,292.17,140413,,,D*47","accelData":"0.07","speedData":"26"},
{"time": "97718","gpsData":"$GPRMC,055543.800,A,3725.5470,N,12210.5354,W,13.90,291.96,140413,,,D*4C","accelData":"0.07","speedData":"26"},
{"time": "98119","gpsData":"$GPRMC,055544.200,A,3725.5473,N,12210.5373,W,13.94,291.63,140413,,,D*49","accelData":"0.07","speedData":"25"},
{"time": "98516","gpsData":"$GPRMC,055544.600,A,3725.5477,N,12210.5391,W,14.01,291.35,140413,,,D*4D","accelData":"0.07","speedData":"25"},
{"time": "98919","gpsData":"$GPRMC,055545.000,A,3725.5482,N,12210.5410,W,14.08,290.90,140413,,,D*49","accelData":"0.07","speedData":"27"},
{"time": "99318","gpsData":"$GPRMC,055545.400,A,3725.5488,N,12210.5426,W,14.14,290.76,140413,,,D*47","accelData":"0.07","speedData":"27"},
{"time": "99717","gpsData":"$GPRMC,055545.800,A,3725.5493,N,12210.5443,W,13.83,290.44,140413,,,D*4A","accelData":"0.07","speedData":"27"},
{"time": "100116","gpsData":"$GPRMC,055546.200,A,3725.5497,N,12210.5460,W,13.58,289.18,140413,,,D*41","accelData":"0.07","speedData":"27"},
{"time": "100516","gpsData":"$GPRMC,055546.600,A,3725.5501,N,12210.5479,W,13.52,288.42,140413,,,D*47","accelData":"0.07","speedData":"27"},
{"time": "100920","gpsData":"$GPRMC,055547.000,A,3725.5505,N,12210.5499,W,13.48,288.63,140413,,,D*42","accelData":"0.07","speedData":"27"},
{"time": "101318","gpsData":"$GPRMC,055547.400,A,3725.5510,N,12210.5519,W,13.48,289.83,140413,,,D*44","accelData":"0.07","speedData":"27"},
{"time": "101715","gpsData":"$GPRMC,055547.800,A,3725.5515,N,12210.5540,W,13.56,290.19,140413,,,D*45","accelData":"0.07","speedData":"27"},
{"time": "102116","gpsData":"$GPRMC,055548.200,A,3725.5521,N,12210.5563,W,14.03,290.13,140413,,,D*4B","accelData":"0.07","speedData":"27"},
{"time": "102515","gpsData":"$GPRMC,055548.600,A,3725.5525,N,12210.5585,W,14.35,289.85,140413,,,D*41","accelData":"0.07","speedData":"27"},
{"time": "102916","gpsData":"$GPRMC,055549.000,A,3725.5530,N,12210.5608,W,14.60,289.36,140413,,,D*4C","accelData":"0.07","speedData":"27"},
{"time": "103317","gpsData":"$GPRMC,055549.400,A,3725.5536,N,12210.5632,W,14.84,289.67,140413,,,D*49","accelData":"0.07","speedData":"27"},
{"time": "103715","gpsData":"$GPRMC,055549.800,A,3725.5542,N,12210.5659,W,14.81,289.71,140413,,,D*49","accelData":"0.07","speedData":"27"},
{"time": "104118","gpsData":"$GPRMC,055550.200,A,3725.5545,N,12210.5683,W,14.53,289.10,140413,,,D*43","accelData":"0.07","speedData":"27"},
{"time": "104515","gpsData":"$GPRMC,055550.600,A,3725.5550,N,12210.5702,W,14.40,288.39,140413,,,D*43","accelData":"0.07","speedData":"29"},
{"time": "104916","gpsData":"$GPRMC,055551.000,A,3725.5554,N,12210.5723,W,14.28,288.16,140413,,,D*40","accelData":"0.07","speedData":"28"},
{"time": "105315","gpsData":"$GPRMC,055551.400,A,3725.5560,N,12210.5746,W,14.50,288.18,140413,,,D*41","accelData":"0.07","speedData":"27"},
{"time": "105714","gpsData":"$GPRMC,055551.800,A,3725.5564,N,12210.5767,W,14.78,287.26,140413,,,D*42","accelData":"0.07","speedData":"27"},
{"time": "106114","gpsData":"$GPRMC,055552.200,A,3725.5569,N,12210.5787,W,15.08,287.35,140413,,,D*4C","accelData":"0.07","speedData":"27"},
{"time": "106514","gpsData":"$GPRMC,055552.600,A,3725.5574,N,12210.5808,W,15.37,287.52,140413,,,D*41","accelData":"0.07","speedData":"29"},
{"time": "106915","gpsData":"$GPRMC,055553.000,A,3725.5578,N,12210.5830,W,15.46,287.62,140413,,,D*44","accelData":"0.07","speedData":"28"},
{"time": "107314","gpsData":"$GPRMC,055553.400,A,3725.5582,N,12210.5851,W,15.27,287.66,140413,,,D*41","accelData":"0.07","speedData":"27"},
{"time": "107713","gpsData":"$GPRMC,055553.800,A,3725.5586,N,12210.5871,W,15.17,288.50,140413,,,D*42","accelData":"0.07","speedData":"29"},
{"time": "108112","gpsData":"$GPRMC,055554.200,A,3725.5591,N,12210.5892,W,15.12,289.07,140413,,,D*42","accelData":"0.07","speedData":"28"},
{"time": "108516","gpsData":"$GPRMC,055554.600,A,3725.5596,N,12210.5913,W,15.05,289.21,140413,,,D*4B","accelData":"0.07","speedData":"28"},
{"time": "108915","gpsData":"$GPRMC,055555.000,A,3725.5600,N,12210.5932,W,14.98,289.35,140413,,,D*43","accelData":"0.06","speedData":"27"},
{"time": "109315","gpsData":"$GPRMC,055555.400,A,3725.5605,N,12210.5952,W,14.97,288.92,140413,,,D*47","accelData":"0.05","speedData":"29"},
{"time": "109713","gpsData":"$GPRMC,055555.800,A,3725.5607,N,12210.5974,W,15.15,288.38,140413,,,D*46","accelData":"0.05","speedData":"28"},
{"time": "110117","gpsData":"$GPRMC,055556.200,A,3725.5609,N,12210.5997,W,15.26,287.74,140413,,,D*4B","accelData":"0.05","speedData":"28"},
{"time": "110512","gpsData":"$GPRMC,055556.600,A,3725.5613,N,12210.6019,W,15.43,287.70,140413,,,D*4F","accelData":"0.06","speedData":"30"},
{"time": "110911","gpsData":"$GPRMC,055557.000,A,3725.5618,N,12210.6039,W,15.49,287.77,140413,,,D*4C","accelData":"0.05","speedData":"29"},
{"time": "111312","gpsData":"$GPRMC,055557.400,A,3725.5621,N,12210.6065,W,15.71,287.22,140413,,,D*40","accelData":"0.06","speedData":"29"},
{"time": "111714","gpsData":"$GPRMC,055557.800,A,3725.5623,N,12210.6091,W,15.97,286.73,140413,,,D*48","accelData":"0.07","speedData":"29"},
{"time": "112113","gpsData":"$GPRMC,055558.200,A,3725.5626,N,12210.6117,W,16.54,285.55,140413,,,D*4C","accelData":"0.07","speedData":"29"},
{"time": "112512","gpsData":"$GPRMC,055558.600,A,3725.5630,N,12210.6142,W,16.66,285.56,140413,,,D*4D","accelData":"0.08","speedData":"29"},
{"time": "112915","gpsData":"$GPRMC,055559.000,A,3725.5635,N,12210.6166,W,16.76,286.16,140413,,,D*4F","accelData":"0.09","speedData":"29"},
{"time": "113313","gpsData":"$GPRMC,055559.400,A,3725.5640,N,12210.6188,W,16.83,287.09,140413,,,D*4C","accelData":"0.10","speedData":"29"},
{"time": "113713","gpsData":"$GPRMC,055559.800,A,3725.5645,N,12210.6210,W,16.81,287.87,140413,,,D*43","accelData":"0.10","speedData":"29"},
{"time": "114111","gpsData":"$GPRMC,055600.200,A,3725.5650,N,12210.6231,W,16.41,288.62,140413,,,D*49","accelData":"0.10","speedData":"29"},
{"time": "114510","gpsData":"$GPRMC,055600.600,A,3725.5653,N,12210.6251,W,16.14,288.61,140413,,,D*4B","accelData":"0.10","speedData":"28"},
{"time": "114911","gpsData":"$GPRMC,055601.000,A,3725.5656,N,12210.6272,W,15.90,288.23,140413,,,D*41","accelData":"0.10","speedData":"28"},
{"time": "115312","gpsData":"$GPRMC,055601.400,A,3725.5660,N,12210.6291,W,15.47,288.34,140413,,,D*41","accelData":"0.10","speedData":"28"},
{"time": "115710","gpsData":"$GPRMC,055601.800,A,3725.5663,N,12210.6311,W,15.25,288.61,140413,,,D*43","accelData":"0.10","speedData":"27"},
{"time": "116114","gpsData":"$GPRMC,055602.200,A,3725.5668,N,12210.6329,W,15.15,288.86,140413,,,D*40","accelData":"0.10","speedData":"27"},
{"time": "116512","gpsData":"$GPRMC,055602.600,A,3725.5672,N,12210.6350,W,14.87,288.78,140413,,,D*4A","accelData":"0.10","speedData":"27"},
{"time": "116910","gpsData":"$GPRMC,055603.000,A,3725.5677,N,12210.6370,W,14.52,288.33,140413,,,D*4D","accelData":"0.10","speedData":"27"},
{"time": "117312","gpsData":"$GPRMC,055603.400,A,3725.5681,N,12210.6388,W,14.18,287.16,140413,,,D*41","accelData":"0.10","speedData":"27"},
{"time": "117711","gpsData":"$GPRMC,055603.800,A,3725.5687,N,12210.6406,W,13.84,286.56,140413,,,D*4D","accelData":"0.10","speedData":"26"},
{"time": "118111","gpsData":"$GPRMC,055604.200,A,3725.5691,N,12210.6424,W,13.61,286.21,140413,,,D*4C","accelData":"0.10","speedData":"26"},
{"time": "118511","gpsData":"$GPRMC,055604.600,A,3725.5696,N,12210.6442,W,13.59,286.70,140413,,,D*40","accelData":"0.10","speedData":"25"},
{"time": "118913","gpsData":"$GPRMC,055605.000,A,3725.5700,N,12210.6461,W,13.42,287.43,140413,,,D*43","accelData":"0.09","speedData":"24"},
{"time": "119311","gpsData":"$GPRMC,055605.400,A,3725.5704,N,12210.6479,W,13.15,287.41,140413,,,D*4A","accelData":"0.09","speedData":"24"},
{"time": "119708","gpsData":"$GPRMC,055605.800,A,3725.5707,N,12210.6498,W,12.92,286.55,140413,,,D*40","accelData":"0.08","speedData":"24"},
{"time": "120111","gpsData":"$GPRMC,055606.200,A,3725.5710,N,12210.6514,W,12.66,286.04,140413,,,D*45","accelData":"0.07","speedData":"23"},
{"time": "120510","gpsData":"$GPRMC,055606.600,A,3725.5714,N,12210.6529,W,12.64,286.22,140413,,,D*4D","accelData":"0.07","speedData":"23"},
{"time": "120910","gpsData":"$GPRMC,055607.000,A,3725.5718,N,12210.6546,W,12.68,285.32,140413,,,D*41","accelData":"0.08","speedData":"23"},
{"time": "121310","gpsData":"$GPRMC,055607.400,A,3725.5721,N,12210.6562,W,12.73,284.41,140413,,,D*46","accelData":"0.09","speedData":"23"},
{"time": "121710","gpsData":"$GPRMC,055607.800,A,3725.5724,N,12210.6579,W,12.74,283.61,140413,,,D*47","accelData":"0.09","speedData":"23"},
{"time": "122109","gpsData":"$GPRMC,055608.200,A,3725.5726,N,12210.6597,W,12.73,282.91,140413,,,D*49","accelData":"0.08","speedData":"22"},
{"time": "122508","gpsData":"$GPRMC,055608.600,A,3725.5730,N,12210.6615,W,12.71,282.76,140413,,,D*48","accelData":"0.08","speedData":"22"},
{"time": "122911","gpsData":"$GPRMC,055609.000,A,3725.5732,N,12210.6633,W,12.67,282.22,140413,,,D*4F","accelData":"0.07","speedData":"22"},
{"time": "123310","gpsData":"$GPRMC,055609.400,A,3725.5734,N,12210.6651,W,12.19,280.37,140413,,,D*46","accelData":"0.05","speedData":"21"},
{"time": "123709","gpsData":"$GPRMC,055609.800,A,3725.5735,N,12210.6670,W,12.18,279.22,140413,,,D*4B","accelData":"0.07","speedData":"21"},
{"time": "124108","gpsData":"$GPRMC,055610.200,A,3725.5734,N,12210.6688,W,12.11,276.79,140413,,,D*47","accelData":"0.06","speedData":"23"},
{"time": "124509","gpsData":"$GPRMC,055610.600,A,3725.5733,N,12210.6705,W,11.82,273.44,140413,,,D*42","accelData":"0.04","speedData":"23"},
{"time": "124910","gpsData":"$GPRMC,055611.000,A,3725.5732,N,12210.6722,W,11.74,269.91,140413,,,D*4B","accelData":"0.02","speedData":"22"},
{"time": "125308","gpsData":"$GPRMC,055611.400,A,3725.5730,N,12210.6739,W,11.73,266.89,140413,,,D*46","accelData":"0.02","speedData":"21"},
{"time": "125708","gpsData":"$GPRMC,055611.800,A,3725.5728,N,12210.6756,W,11.78,264.15,140413,,,D*46","accelData":"-0.02","speedData":"23"},
{"time": "126108","gpsData":"$GPRMC,055612.200,A,3725.5724,N,12210.6775,W,12.27,261.93,140413,,,D*40","accelData":"-0.05","speedData":"23"},
{"time": "126508","gpsData":"$GPRMC,055612.600,A,3725.5722,N,12210.6794,W,12.56,261.54,140413,,,D*40","accelData":"-0.06","speedData":"23"},
{"time": "126908","gpsData":"$GPRMC,055613.000,A,3725.5719,N,12210.6815,W,13.34,261.59,140413,,,D*41","accelData":"-0.05","speedData":"25"},
{"time": "127307","gpsData":"$GPRMC,055613.400,A,3725.5717,N,12210.6837,W,13.92,261.52,140413,,,D*4C","accelData":"0.00","speedData":"25"},
{"time": "127708","gpsData":"$GPRMC,055613.800,A,3725.5714,N,12210.6859,W,14.42,260.64,140413,,,D*45","accelData":"0.05","speedData":"28"},
{"time": "128110","gpsData":"$GPRMC,055614.200,A,3725.5712,N,12210.6888,W,15.57,258.74,140413,,,D*4D","accelData":"0.07","speedData":"31"},
{"time": "128507","gpsData":"$GPRMC,055614.600,A,3725.5705,N,12210.6923,W,15.95,257.10,140413,,,D*4C","accelData":"0.08","speedData":"31"},
{"time": "128907","gpsData":"$GPRMC,055615.000,A,3725.5691,N,12210.6966,W,16.21,255.28,140413,,,D*43","accelData":"0.09","speedData":"30"},
{"time": "129307","gpsData":"$GPRMC,055615.400,A,3725.5683,N,12210.6997,W,16.15,254.27,140413,,,D*43","accelData":"0.10","speedData":"30"},
{"time": "129704","gpsData":"$GPRMC,055615.800,A,3725.5675,N,12210.7029,W,16.04,253.99,140413,,,D*49","accelData":"0.09","speedData":"30"},
{"time": "130104","gpsData":"$GPRMC,055616.200,A,3725.5670,N,12210.7052,W,15.81,253.66,140413,,,D*47","accelData":"0.08","speedData":"30"},
{"time": "130504","gpsData":"$GPRMC,055616.600,A,3725.5665,N,12210.7072,W,15.46,253.86,140413,,,D*40","accelData":"0.08","speedData":"29"},
{"time": "130906","gpsData":"$GPRMC,055617.000,A,3725.5660,N,12210.7090,W,15.40,254.33,140413,,,D*41","accelData":"0.07","speedData":"29"},
{"time": "131304","gpsData":"$GPRMC,055617.400,A,3725.5655,N,12210.7109,W,15.39,255.21,140413,,,D*4E","accelData":"0.07","speedData":"28"},
{"time": "131704","gpsData":"$GPRMC,055617.800,A,3725.5651,N,12210.7129,W,15.37,256.50,140413,,,D*4F","accelData":"0.07","speedData":"27"},
{"time": "132104","gpsData":"$GPRMC,055618.200,A,3725.5647,N,12210.7148,W,15.34,257.63,140413,,,D*48","accelData":"0.07","speedData":"29"},
{"time": "132503","gpsData":"$GPRMC,055618.600,A,3725.5644,N,12210.7168,W,15.36,258.72,140413,,,D*40","accelData":"0.06","speedData":"29"},
{"time": "132903","gpsData":"$GPRMC,055619.000,A,3725.5640,N,12210.7189,W,15.44,259.66,140413,,,D*4D","accelData":"0.07","speedData":"28"},
{"time": "133302","gpsData":"$GPRMC,055619.400,A,3725.5637,N,12210.7212,W,15.75,261.41,140413,,,D*44","accelData":"0.05","speedData":"28"},
{"time": "133702","gpsData":"$GPRMC,055619.800,A,3725.5634,N,12210.7234,W,15.98,262.74,140413,,,D*49","accelData":"0.05","speedData":"28"},
{"time": "134108","gpsData":"$GPRMC,055620.200,A,3725.5631,N,12210.7258,W,16.10,264.16,140413,,,D*47","accelData":"-0.02","speedData":"28"},
{"time": "134503","gpsData":"$GPRMC,055620.600,A,3725.5623,N,12210.7284,W,16.34,265.88,140413,,,D*41","accelData":"-0.06","speedData":"30"},
{"time": "134906","gpsData":"$GPRMC,055621.000,A,3725.5620,N,12210.7309,W,16.66,268.09,140413,,,D*42","accelData":"-0.07","speedData":"28"},
{"time": "135302","gpsData":"$GPRMC,055621.400,A,3725.5620,N,12210.7334,W,17.19,270.33,140413,,,D*41","accelData":"-0.03","speedData":"30"},
{"time": "135702","gpsData":"$GPRMC,055621.800,A,3725.5623,N,12210.7356,W,18.08,272.04,140413,,,D*43","accelData":"0.03","speedData":"32"},
{"time": "136102","gpsData":"$GPRMC,055622.200,A,3725.5627,N,12210.7381,W,18.73,273.72,140413,,,D*48","accelData":"0.07","speedData":"34"},
{"time": "136501","gpsData":"$GPRMC,055622.600,A,3725.5631,N,12210.7405,W,18.99,275.18,140413,,,D*4E","accelData":"0.08","speedData":"36"},
{"time": "136904","gpsData":"$GPRMC,055623.000,A,3725.5635,N,12210.7431,W,19.39,277.85,140413,,,D*47","accelData":"0.10","speedData":"36"},
{"time": "137303","gpsData":"$GPRMC,055623.400,A,3725.5636,N,12210.7463,W,19.71,278.87,140413,,,D*46","accelData":"0.10","speedData":"36"},
{"time": "137701","gpsData":"$GPRMC,055623.800,A,3725.5638,N,12210.7494,W,19.83,279.94,140413,,,D*42","accelData":"0.10","speedData":"36"},
{"time": "138101","gpsData":"$GPRMC,055624.200,A,3725.5641,N,12210.7529,W,19.83,281.54,140413,,,D*4D","accelData":"0.10","speedData":"35"},
{"time": "138501","gpsData":"$GPRMC,055624.600,A,3725.5645,N,12210.7559,W,19.53,282.02,140413,,,D*47","accelData":"0.10","speedData":"35"},
{"time": "138901","gpsData":"$GPRMC,055625.000,A,3725.5650,N,12210.7587,W,19.31,282.70,140413,,,D*46","accelData":"0.10","speedData":"34"},
{"time": "139300","gpsData":"$GPRMC,055625.400,A,3725.5655,N,12210.7614,W,19.07,282.66,140413,,,D*4C","accelData":"0.10","speedData":"33"},
{"time": "139700","gpsData":"$GPRMC,055625.800,A,3725.5661,N,12210.7640,W,18.57,282.62,140413,,,D*46","accelData":"0.10","speedData":"33"},
{"time": "140102","gpsData":"$GPRMC,055626.200,A,3725.5667,N,12210.7663,W,18.01,283.27,140413,,,D*4B","accelData":"0.12","speedData":"33"},
{"time": "140500","gpsData":"$GPRMC,055626.600,A,3725.5674,N,12210.7687,W,17.78,283.70,140413,,,D*44","accelData":"0.11","speedData":"33"},
{"time": "140905","gpsData":"$GPRMC,055627.000,A,3725.5679,N,12210.7710,W,17.44,283.85,140413,,,D*44","accelData":"0.11","speedData":"32"},
{"time": "141302","gpsData":"$GPRMC,055627.400,A,3725.5682,N,12210.7733,W,17.19,283.61,140413,,,D*47","accelData":"0.11","speedData":"32"},
{"time": "141702","gpsData":"$GPRMC,055627.800,A,3725.5686,N,12210.7757,W,16.85,283.15,140413,,,D*4A","accelData":"0.10","speedData":"31"},
{"time": "142101","gpsData":"$GPRMC,055628.200,A,3725.5690,N,12210.7780,W,16.70,282.47,140413,,,D*4E","accelData":"0.10","speedData":"30"},
{"time": "142499","gpsData":"$GPRMC,055628.600,A,3725.5696,N,12210.7799,W,16.71,283.07,140413,,,D*40","accelData":"0.10","speedData":"30"},
{"time": "142900","gpsData":"$GPRMC,055629.000,A,3725.5703,N,12210.7817,W,16.66,284.32,140413,,,D*44","accelData":"0.10","speedData":"30"},
{"time": "143299","gpsData":"$GPRMC,055629.400,A,3725.5710,N,12210.7836,W,16.63,285.29,140413,,,D*4F","accelData":"0.10","speedData":"30"},
{"time": "143699","gpsData":"$GPRMC,055629.800,A,3725.5718,N,12210.7854,W,16.59,286.29,140413,,,D*45","accelData":"0.10","speedData":"30"},
{"time": "144099","gpsData":"$GPRMC,055630.200,A,3725.5726,N,12210.7874,W,16.34,287.20,140413,,,D*4B","accelData":"0.10","speedData":"30"},
{"time": "144498","gpsData":"$GPRMC,055630.600,A,3725.5732,N,12210.7893,W,16.14,287.09,140413,,,D*4A","accelData":"0.08","speedData":"29"},
{"time": "144899","gpsData":"$GPRMC,055631.000,A,3725.5737,N,12210.7915,W,16.02,286.87,140413,,,D*47","accelData":"0.07","speedData":"29"},
{"time": "145298","gpsData":"$GPRMC,055631.400,A,3725.5744,N,12210.7933,W,15.67,287.49,140413,,,D*40","accelData":"0.05","speedData":"28"},
{"time": "145698","gpsData":"$GPRMC,055631.800,A,3725.5749,N,12210.7952,W,15.58,287.52,140413,,,D*40","accelData":"0.02","speedData":"28"},
{"time": "146098","gpsData":"$GPRMC,055632.200,A,3725.5754,N,12210.7973,W,15.64,287.75,140413,,,D*4C","accelData":"-0.02","speedData":"28"},
{"time": "146496","gpsData":"$GPRMC,055632.600,A,3725.5760,N,12210.7994,W,16.10,288.07,140413,,,D*4C","accelData":"-0.02","speedData":"30"},
{"time": "146899","gpsData":"$GPRMC,055633.000,A,3725.5768,N,12210.8016,W,17.00,289.39,140413,,,D*43","accelData":"-0.02","speedData":"32"},
{"time": "147297","gpsData":"$GPRMC,055633.400,A,3725.5777,N,12210.8039,W,18.05,291.48,140413,,,D*41","accelData":"-0.01","speedData":"32"},
{"time": "147696","gpsData":"$GPRMC,055633.800,A,3725.5785,N,12210.8064,W,18.44,292.57,140413,,,D*40","accelData":"0.03","speedData":"34"},
{"time": "148098","gpsData":"$GPRMC,055634.200,A,3725.5794,N,12210.8087,W,18.78,294.01,140413,,,D*4A","accelData":"0.05","speedData":"36"},
{"time": "148496","gpsData":"$GPRMC,055634.600,A,3725.5803,N,12210.8112,W,19.16,295.12,140413,,,D*48","accelData":"0.08","speedData":"36"},
{"time": "148898","gpsData":"$GPRMC,055635.000,A,3725.5813,N,12210.8136,W,19.52,295.97,140413,,,D*45","accelData":"0.10","speedData":"38"},
{"time": "149296","gpsData":"$GPRMC,055635.400,A,3725.5825,N,12210.8162,W,19.71,297.11,140413,,,D*48","accelData":"0.11","speedData":"37"},
{"time": "149696","gpsData":"$GPRMC,055635.800,A,3725.5838,N,12210.8187,W,19.91,298.15,140413,,,D*46","accelData":"0.12","speedData":"37"},
{"time": "150096","gpsData":"$GPRMC,055636.200,A,3725.5850,N,12210.8213,W,20.00,299.14,140413,,,D*4D","accelData":"0.13","speedData":"37"},
{"time": "150495","gpsData":"$GPRMC,055636.600,A,3725.5864,N,12210.8238,W,19.82,299.87,140413,,,D*4D","accelData":"0.14","speedData":"36"},
{"time": "150898","gpsData":"$GPRMC,055637.000,A,3725.5876,N,12210.8261,W,19.58,300.05,140413,,,D*49","accelData":"0.13","speedData":"36"},
{"time": "151296","gpsData":"$GPRMC,055637.400,A,3725.5888,N,12210.8283,W,19.20,299.85,140413,,,D*46","accelData":"0.14","speedData":"36"},
{"time": "151696","gpsData":"$GPRMC,055637.800,A,3725.5899,N,12210.8306,W,19.13,299.43,140413,,,D*4C","accelData":"0.12","speedData":"35"},
{"time": "152097","gpsData":"$GPRMC,055638.200,A,3725.5909,N,12210.8329,W,18.91,298.06,140413,,,D*47","accelData":"0.10","speedData":"35"},
{"time": "152494","gpsData":"$GPRMC,055638.600,A,3725.5919,N,12210.8350,W,18.67,297.06,140413,,,D*4A","accelData":"0.08","speedData":"34"},
{"time": "152893","gpsData":"$GPRMC,055639.000,A,3725.5929,N,12210.8374,W,18.71,295.88,140413,,,D*4B","accelData":"0.04","speedData":"33"},
{"time": "153294","gpsData":"$GPRMC,055639.400,A,3725.5939,N,12210.8397,W,18.92,295.50,140413,,,D*4B","accelData":"0.05","speedData":"35"},
{"time": "153693","gpsData":"$GPRMC,055639.800,A,3725.5950,N,12210.8421,W,19.19,295.50,140413,,,D*40","accelData":"0.04","speedData":"35"},
{"time": "154093","gpsData":"$GPRMC,055640.200,A,3725.5961,N,12210.8444,W,19.41,296.14,140413,,,D*4B","accelData":"0.07","speedData":"34"},
{"time": "154492","gpsData":"$GPRMC,055640.600,A,3725.5972,N,12210.8469,W,19.64,296.59,140413,,,D*4C","accelData":"0.07","speedData":"34"},
{"time": "154895","gpsData":"$GPRMC,055641.000,A,3725.5983,N,12210.8495,W,19.70,296.42,140413,,,D*49","accelData":"0.10","speedData":"37"},
{"time": "155294","gpsData":"$GPRMC,055641.400,A,3725.5993,N,12210.8520,W,19.75,296.75,140413,,,D*42","accelData":"0.13","speedData":"36"},
{"time": "155695","gpsData":"$GPRMC,055641.800,A,3725.6003,N,12210.8545,W,19.76,296.90,140413,,,D*46","accelData":"0.18","speedData":"35"},
{"time": "156095","gpsData":"$GPRMC,055642.200,A,3725.6013,N,12210.8568,W,19.17,298.08,140413,,,D*49","accelData":"0.20","speedData":"35"},
{"time": "156492","gpsData":"$GPRMC,055642.600,A,3725.6022,N,12210.8590,W,18.85,298.90,140413,,,D*43","accelData":"0.21","speedData":"35"},
{"time": "156892","gpsData":"$GPRMC,055643.000,A,3725.6032,N,12210.8611,W,18.32,300.85,140413,,,D*47","accelData":"0.22","speedData":"34"},
{"time": "157291","gpsData":"$GPRMC,055643.400,A,3725.6041,N,12210.8633,W,17.95,300.77,140413,,,D*48","accelData":"0.22","speedData":"32"},
{"time": "157690","gpsData":"$GPRMC,055643.800,A,3725.6049,N,12210.8652,W,17.15,301.34,140413,,,D*45","accelData":"0.21","speedData":"30"},
{"time": "158092","gpsData":"$GPRMC,055644.200,A,3725.6054,N,12210.8670,W,16.02,301.56,140413,,,D*47","accelData":"0.19","speedData":"28"},
{"time": "158492","gpsData":"$GPRMC,055644.600,A,3725.6060,N,12210.8688,W,15.42,300.07,140413,,,D*41","accelData":"0.18","speedData":"26"},
{"time": "158892","gpsData":"$GPRMC,055645.000,A,3725.6066,N,12210.8705,W,14.53,299.57,140413,,,D*41","accelData":"0.19","speedData":"26"},
{"time": "159292","gpsData":"$GPRMC,055645.400,A,3725.6072,N,12210.8719,W,13.51,299.31,140413,,,D*48","accelData":"0.19","speedData":"24"},
{"time": "159691","gpsData":"$GPRMC,055645.800,A,3725.6079,N,12210.8731,W,12.56,301.69,140413,,,D*4E","accelData":"0.21","speedData":"21"},
{"time": "160093","gpsData":"$GPRMC,055646.200,A,3725.6085,N,12210.8741,W,11.50,303.85,140413,,,D*46","accelData":"0.20","speedData":"19"},
{"time": "160492","gpsData":"$GPRMC,055646.600,A,3725.6089,N,12210.8751,W,10.52,302.07,140413,,,D*47","accelData":"0.21","speedData":"18"},
{"time": "160889","gpsData":"$GPRMC,055647.000,A,3725.6093,N,12210.8758,W,9.30,303.03,140413,,,D*7B","accelData":"0.21","speedData":"16"},
{"time": "161291","gpsData":"$GPRMC,055647.400,A,3725.6096,N,12210.8765,W,8.20,302.46,140413,,,D*74","accelData":"0.20","speedData":"14"},
{"time": "161689","gpsData":"$GPRMC,055647.800,A,3725.6100,N,12210.8770,W,7.15,306.24,140413,,,D*7B","accelData":"0.15","speedData":"14"},
{"time": "162088","gpsData":"$GPRMC,055648.200,A,3725.6103,N,12210.8773,W,6.04,309.87,140413,,,D*79","accelData":"0.10","speedData":"11"},
{"time": "162489","gpsData":"$GPRMC,055648.600,A,3725.6107,N,12210.8777,W,5.57,311.17,140413,,,D*78","accelData":"0.07","speedData":"8"},
{"time": "162888","gpsData":"$GPRMC,055649.000,A,3725.6110,N,12210.8780,W,4.86,311.63,140413,,,D*7F","accelData":"0.03","speedData":"7"},
{"time": "163289","gpsData":"$GPRMC,055649.400,A,3725.6111,N,12210.8782,W,4.18,307.65,140413,,,D*7E","accelData":"-0.02","speedData":"6"},
{"time": "163687","gpsData":"$GPRMC,055649.800,A,3725.6114,N,12210.8786,W,4.17,304.41,140413,,,D*79","accelData":"-0.05","speedData":"6"},
{"time": "164092","gpsData":"$GPRMC,055650.200,A,3725.6117,N,12210.8790,W,4.24,302.16,140413,,,D*7B","accelData":"-0.07","speedData":"6"},
{"time": "164490","gpsData":"$GPRMC,055650.600,A,3725.6118,N,12210.8790,W,4.51,301.56,140413,,,D*75","accelData":"-0.05","speedData":"6"},
{"time": "164891","gpsData":"$GPRMC,055651.000,A,3725.6117,N,12210.8791,W,5.23,304.85,140413,,,D*73","accelData":"-0.02","speedData":"8"},
{"time": "165288","gpsData":"$GPRMC,055651.400,A,3725.6116,N,12210.8796,W,5.64,310.88,140413,,,D*7A","accelData":"0.01","speedData":"10"},
{"time": "165688","gpsData":"$GPRMC,055651.800,A,3725.6120,N,12210.8808,W,6.69,315.27,140413,,,D*75","accelData":"0.02","speedData":"12"},
{"time": "166088","gpsData":"$GPRMC,055652.200,A,3725.6128,N,12210.8819,W,7.57,319.66,140413,,,D*71","accelData":"0.03","speedData":"15"},
{"time": "166488","gpsData":"$GPRMC,055652.600,A,3725.6137,N,12210.8826,W,7.84,324.61,140413,,,D*70","accelData":"0.01","speedData":"15"},
{"time": "166891","gpsData":"$GPRMC,055653.000,A,3725.6147,N,12210.8828,W,8.06,335.37,140413,,,D*78","accelData":"-0.01","speedData":"15"},
{"time": "167286","gpsData":"$GPRMC,055653.400,A,3725.6156,N,12210.8830,W,8.47,341.05,140413,,,D*72","accelData":"-0.03","speedData":"17"},
{"time": "167687","gpsData":"$GPRMC,055653.800,A,3725.6167,N,12210.8830,W,8.85,349.34,140413,,,D*78","accelData":"-0.04","speedData":"19"},
{"time": "168087","gpsData":"$GPRMC,055654.200,A,3725.6179,N,12210.8829,W,9.28,356.69,140413,,,D*72","accelData":"-0.03","speedData":"19"},
{"time": "168486","gpsData":"$GPRMC,055654.600,A,3725.6191,N,12210.8828,W,9.51,1.52,140413,,,D*76","accelData":"-0.03","speedData":"21"},
{"time": "168886","gpsData":"$GPRMC,055655.000,A,3725.6202,N,12210.8826,W,9.82,4.55,140413,,,D*7A","accelData":"-0.02","speedData":"23"},
{"time": "169287","gpsData":"$GPRMC,055655.400,A,3725.6213,N,12210.8822,W,10.24,8.18,140413,,,D*4B","accelData":"-0.02","speedData":"25"},
{"time": "169688","gpsData":"$GPRMC,055655.800,A,3725.6226,N,12210.8818,W,10.99,11.45,140413,,,D*7E","accelData":"-0.02","speedData":"25"},
{"time": "170089","gpsData":"$GPRMC,055656.200,A,3725.6238,N,12210.8811,W,11.81,14.58,140413,,,D*70","accelData":"-0.02","speedData":"27"},
{"time": "170487","gpsData":"$GPRMC,055656.600,A,3725.6252,N,12210.8803,W,12.59,16.50,140413,,,D*77","accelData":"-0.01","speedData":"29"},
{"time": "170887","gpsData":"$GPRMC,055657.000,A,3725.6268,N,12210.8792,W,13.46,17.51,140413,,,D*71","accelData":"0.01","speedData":"31"},
{"time": "171287","gpsData":"$GPRMC,055657.400,A,3725.6286,N,12210.8781,W,15.04,18.02,140413,,,D*7E","accelData":"0.02","speedData":"31"},
{"time": "171685","gpsData":"$GPRMC,055657.800,A,3725.6306,N,12210.8770,W,16.65,19.97,140413,,,D*7C","accelData":"0.03","speedData":"33"},
{"time": "172087","gpsData":"$GPRMC,055658.200,A,3725.6325,N,12210.8760,W,17.32,19.70,140413,,,D*73","accelData":"0.03","speedData":"33"},
{"time": "172488","gpsData":"$GPRMC,055658.600,A,3725.6344,N,12210.8752,W,17.46,18.82,140413,,,D*7E","accelData":"0.03","speedData":"35"},
{"time": "172890","gpsData":"$GPRMC,055659.000,A,3725.6364,N,12210.8744,W,17.66,17.67,140413,,,D*7A","accelData":"0.04","speedData":"34"},
{"time": "173286","gpsData":"$GPRMC,055659.400,A,3725.6383,N,12210.8736,W,17.75,16.57,140413,,,D*72","accelData":"0.05","speedData":"35"},
{"time": "173685","gpsData":"$GPRMC,055659.800,A,3725.6404,N,12210.8729,W,17.98,16.65,140413,,,D*7A","accelData":"0.06","speedData":"37"},
{"time": "174085","gpsData":"$GPRMC,055700.200,A,3725.6424,N,12210.8721,W,18.20,16.08,140413,,,D*70","accelData":"0.06","speedData":"37"},
{"time": "174485","gpsData":"$GPRMC,055700.600,A,3725.6446,N,12210.8713,W,18.78,15.93,140413,,,D*7D","accelData":"0.07","speedData":"36"},
{"time": "174884","gpsData":"$GPRMC,055701.000,A,3725.6470,N,12210.8703,W,19.78,15.17,140413,,,D*73","accelData":"0.09","speedData":"36"},
{"time": "175284","gpsData":"$GPRMC,055701.400,A,3725.6495,N,12210.8693,W,20.99,14.89,140413,,,D*77","accelData":"0.10","speedData":"38"},
{"time": "175683","gpsData":"$GPRMC,055701.800,A,3725.6521,N,12210.8683,W,21.68,13.85,140413,,,D*70","accelData":"0.12","speedData":"38"},
{"time": "176087","gpsData":"$GPRMC,055702.200,A,3725.6547,N,12210.8673,W,22.07,13.45,140413,,,D*70","accelData":"0.12","speedData":"37"},
{"time": "176483","gpsData":"$GPRMC,055702.600,A,3725.6573,N,12210.8663,W,22.11,13.35,140413,,,D*72","accelData":"0.12","speedData":"37"},
{"time": "176886","gpsData":"$GPRMC,055703.000,A,3725.6598,N,12210.8654,W,22.13,13.33,140413,,,D*70","accelData":"0.13","speedData":"37"},
{"time": "177282","gpsData":"$GPRMC,055703.400,A,3725.6621,N,12210.8644,W,21.66,14.64,140413,,,D*70","accelData":"0.12","speedData":"36"},
{"time": "177683","gpsData":"$GPRMC,055703.800,A,3725.6645,N,12210.8634,W,21.55,15.29,140413,,,D*71","accelData":"0.13","speedData":"36"},
{"time": "178082","gpsData":"$GPRMC,055704.200,A,3725.6667,N,12210.8625,W,20.97,15.86,140413,,,D*76","accelData":"0.13","speedData":"36"},
{"time": "178483","gpsData":"$GPRMC,055704.600,A,3725.6688,N,12210.8615,W,20.50,17.05,140413,,,D*72","accelData":"0.13","speedData":"36"},
{"time": "178882","gpsData":"$GPRMC,055705.000,A,3725.6708,N,12210.8607,W,20.02,17.56,140413,,,D*7E","accelData":"0.13","speedData":"36"},
{"time": "179282","gpsData":"$GPRMC,055705.400,A,3725.6728,N,12210.8598,W,19.67,17.54,140413,,,D*76","accelData":"0.12","speedData":"35"},
{"time": "179683","gpsData":"$GPRMC,055705.800,A,3725.6747,N,12210.8589,W,18.84,17.56,140413,,,D*7D","accelData":"0.13","speedData":"35"},
{"time": "180082","gpsData":"$GPRMC,055706.200,A,3725.6768,N,12210.8580,W,18.06,18.14,140413,,,D*73","accelData":"0.13","speedData":"35"},
{"time": "180483","gpsData":"$GPRMC,055706.600,A,3725.6788,N,12210.8572,W,17.80,17.91,140413,,,D*77","accelData":"0.13","speedData":"34"},
{"time": "180883","gpsData":"$GPRMC,055707.000,A,3725.6807,N,12210.8565,W,17.10,17.60,140413,,,D*79","accelData":"0.15","speedData":"33"},
{"time": "181283","gpsData":"$GPRMC,055707.400,A,3725.6828,N,12210.8558,W,16.59,17.20,140413,,,D*76","accelData":"0.15","speedData":"33"},
{"time": "181683","gpsData":"$GPRMC,055707.800,A,3725.6850,N,12210.8551,W,16.51,17.20,140413,,,D*74","accelData":"0.14","speedData":"32"},
{"time": "182085","gpsData":"$GPRMC,055708.200,A,3725.6870,N,12210.8544,W,16.23,16.80,140413,,,D*79","accelData":"0.11","speedData":"32"},
